{
"type": "FeatureCollection",
"name": "ecopuntos_2",
"crs": { "type": "name", "properties": { "name": "urn:ogc:def:crs:OGC:1.3:CRS84" } },
"features": [
{ "type": "Feature", "properties": { "nombre": "Plazoleta Alemania", "categoria": "EcoPuntos con atencion personalizada" }, "geometry": { "type": "Point", "coordinates": [ -60.7140941, -31.6625731, 0.0 ] } },
{ "type": "Feature", "properties": { "nombre": "Parque Alberdi", "categoria": "EcoPuntos con atencion personalizada" }, "geometry": { "type": "Point", "coordinates": [ -60.7058421, -31.6484446, 0.0 ] } },
{ "type": "Feature", "properties": { "nombre": "Estacion Belgrano", "categoria": "EcoPuntos con atencion personalizada" }, "geometry": { "type": "Point", "coordinates": [ -60.6866652, -31.6389446, 0.0 ] } },
{ "type": "Feature", "properties": { "nombre": "Parque Federal", "categoria": "EcoPuntos con atencion personalizada" }, "geometry": { "type": "Point", "coordinates": [ -60.697529, -31.6192381, 0.0 ] } },
{ "type": "Feature", "properties": { "nombre": "Costanera Oeste", "categoria": "EcoPuntos con atencion personalizada" }, "geometry": { "type": "Point", "coordinates": [ -60.6782434, -31.623793100000022, 0.0 ] } },
{ "type": "Feature", "properties": { "nombre": "Parque Garay", "categoria": "EcoPuntos con atencion personalizada" }, "geometry": { "type": "Point", "coordinates": [ -60.7185739, -31.6370887, 0.0 ] } },
{ "type": "Feature", "properties": { "nombre": "Plaza Juan Pablo Lopez", "categoria": "EcoPuntos con atencion personalizada" }, "geometry": { "type": "Point", "coordinates": [ -60.6721414, -31.603604, 0.0 ] } },
{ "type": "Feature", "properties": { "nombre": "Paseo del Restaurador", "categoria": "EcoPuntos con atencion personalizada" }, "geometry": { "type": "Point", "coordinates": [ -60.7005586, -31.634613, 0.0 ] } },
{ "type": "Feature", "properties": { "nombre": "Plaza Fournier", "categoria": "EcoPuntos con atencion personalizada" }, "geometry": { "type": "Point", "coordinates": [ -60.70556040000001, -31.6041995, 0.0 ] } },
{ "type": "Feature", "properties": { "nombre": "Colectora RP1 6214 | afuera del camping ASOEM", "categoria": "EcoPuntos con atencion personalizada" }, "geometry": { "type": "Point", "coordinates": [ -60.6067636, -31.6271253, 0.0 ] } },
{ "type": "Feature", "properties": { "nombre": "Plazoleta en Las Flores", "categoria": "EcoPuntos con atencion personalizada" }, "geometry": { "type": "Point", "coordinates": [ -60.7123193, -31.594247100000011, 0.0 ] } },
{ "type": "Feature", "properties": { "nombre": "Palacio Municipal", "categoria": "EcoPuntos sin atencion personalizada (campanas y contenedores fijos)" }, "geometry": { "type": "Point", "coordinates": [ -60.7123113, -31.6497158, 0.0 ] } },
{ "type": "Feature", "properties": { "nombre": "Distrito Este Prado Español", "categoria": "EcoPuntos sin atencion personalizada (campanas y contenedores fijos)" }, "geometry": { "type": "Point", "coordinates": [ -60.6789937, -31.611665500000015, 0.0 ] } },
{ "type": "Feature", "properties": { "nombre": "Distrito Noroeste Polideportivo La Tablada", "categoria": "EcoPuntos sin atencion personalizada (campanas y contenedores fijos)" }, "geometry": { "type": "Point", "coordinates": [ -60.7456388, -31.5642434, 0.0 ] } },
{ "type": "Feature", "properties": { "nombre": "Estacion de Cuidados Barranquitas Oeste", "categoria": "EcoPuntos sin atencion personalizada (campanas y contenedores fijos)" }, "geometry": { "type": "Point", "coordinates": [ -60.7230772, -31.6270797, 0.0 ] } },
{ "type": "Feature", "properties": { "nombre": "Estacion de Cuidados La Guardia", "categoria": "EcoPuntos sin atencion personalizada (campanas y contenedores fijos)" }, "geometry": { "type": "Point", "coordinates": [ -60.6342241, -31.6420526, 0.0 ] } },
{ "type": "Feature", "properties": { "nombre": "Vecinal Pro Mejoras Alto Verde", "categoria": "EcoPuntos sin atencion personalizada (campanas y contenedores fijos)" }, "geometry": { "type": "Point", "coordinates": [ -60.7008024, -31.6653135, 0.0 ] } },
{ "type": "Feature", "properties": { "nombre": "Shopping Puerto Plaza", "categoria": "EcoPuntos sin atencion personalizada (campanas y contenedores fijos)" }, "geometry": { "type": "Point", "coordinates": [ -60.6971725, -31.6468898, 0.0 ] } },
{ "type": "Feature", "properties": { "nombre": "Club Azopardo", "categoria": "EcoPuntos sin atencion personalizada (campanas y contenedores fijos)" }, "geometry": { "type": "Point", "coordinates": [ -60.6860077, -31.64305, 0.0 ] } },
{ "type": "Feature", "properties": { "nombre": "IMUSA Parque Garay", "categoria": "EcoPuntos sin atencion personalizada (campanas y contenedores fijos)" }, "geometry": { "type": "Point", "coordinates": [ -60.7190977, -31.633552400000013, 0.0 ] } },
{ "type": "Feature", "properties": { "nombre": "Reserva Natural del Oeste", "categoria": "EcoPuntos sin atencion personalizada (campanas y contenedores fijos)" }, "geometry": { "type": "Point", "coordinates": [ -60.7241328, -31.606929, 0.0 ] } },
{ "type": "Feature", "properties": { "nombre": "Asociacion Vecinal Colastine Sur", "categoria": "EcoPuntos sin atencion personalizada (campanas y contenedores fijos)" }, "geometry": { "type": "Point", "coordinates": [ -60.6189437, -31.6475194, 0.0 ] } },
{ "type": "Feature", "properties": { "nombre": "I.P.E.I. Instituto Privado de Educacion Integral Leonardo Da Vinci", "categoria": "EcoPuntos sin atencion personalizada (campanas y contenedores fijos)" }, "geometry": { "type": "Point", "coordinates": [ -60.7150163, -31.63262850000001, 0.0 ] } },
{ "type": "Feature", "properties": { "nombre": "Litoral Gas S.A.", "categoria": "EcoPuntos sin atencion personalizada (campanas y contenedores fijos)" }, "geometry": { "type": "Point", "coordinates": [ -60.6990968, -31.6383585, 0.0 ] } },
{ "type": "Feature", "properties": { "nombre": "Sociedad de Quinteros", "categoria": "EcoPuntos sin atencion personalizada (campanas y contenedores fijos)" }, "geometry": { "type": "Point", "coordinates": [ -60.6910974, -31.5843402, 0.0 ] } },
{ "type": "Feature", "properties": { "nombre": "Estacion de Cuidado de las Paltas", "categoria": "EcoPuntos sin atencion personalizada (campanas y contenedores fijos)" }, "geometry": { "type": "Point", "coordinates": [ -60.6102707, -31.619487600000017, 0.0 ] } }
]
}
